{"type":"FeatureCollection", "features":[
{"type":"Feature","geometry":{"type":"Point","coordinates":[13.043143054762664,47.789057094144454,0]},"properties":{"NoteType":2,"Name":"Public WC","Notes":"A clean and well-maintained public restroom that doesn’t require payment to enter.","hours":"24/7"}},
{"type":"Feature","geometry":{"type":"Point","coordinates":[13.04470514868495,47.813800935495244,0]},"properties":{"NoteType":1,"Name":"McDonald's","Notes":"An international symbol of capitalism may not be the first thing that comes to mind when thinking about running, but it can be a great spot to rehydrate or grab a quick bite after your run.","hours":"5:30 AM - 1 AM (Fr-Sa 2 AM)"}},
{"type":"Feature","geometry":{"type":"Point","coordinates":[13.04241925339214,47.80103159878126,0]},"properties":{"NoteType":2,"Name":"Public WC","Notes":"A clean and well-maintained public restroom. Entry fee is 50 cents.","hours":"24/7"}},
{"type":"Feature","geometry":{"type":"Point","coordinates":[13.040846531501728,47.80557102782592,0]},"properties":{"NoteType":2,"Name":"Public WC","Notes":"A clean and well-maintained public restroom. Entry fee is 50 cents.","hours":"24/7"}},
{"type":"Feature","geometry":{"type":"Point","coordinates":[13.045450218568119,47.812754220521086,0]},"properties":{"NoteType":2,"Name":"Public WC","Notes":"A clean and well-maintained public restroom at the train station for a fee.","hours":"24/7"}},
{"type":"Feature","geometry":{"type":"Point","coordinates":[13.061599404907273,47.80946700537143,0]},"properties":{"NoteType":3,"Name":"Day-and-Night E-Kiosk","Notes":"Surprisingly well-stocked snack and drink vending machines.","hours":"24/7"}},
{"type":"Feature","geometry":{"type":"Point","coordinates":[13.061519155707998,47.80982870047868,0]},"properties":{"NoteType":1,"Name":"McDonald's","Notes":"An international symbol of capitalism may not be the first thing that comes to mind when thinking about running, but it can be a great spot to rehydrate or grab a quick bite after your run.","hours":"06:30 - 2 AM (Fr - Sa 3 AM)"}},
{"type":"Feature","geometry":{"type":"Point","coordinates":[13.048265789298494,47.804148792670006,0]},"properties":{"NoteType":3,"Name":"Bistro Box","Notes":"Well-stocked vending machines with drinks and snacks, but the real highlight is the 24/7 mini pizza machine. A bit pricey, but when everything else is closed at night, it’s a lifesaver.","hours":"24/7"}},
{"type":"Feature","geometry":{"type":"Point","coordinates":[13.018953980766598,47.804254206502335,0]},"properties":{"NoteType":3,"Name":"Day-and-Night E-Kiosk","Notes":"Surprisingly well-stocked snack and drink vending machines.","hours":"24/7"}},
{"type":"Feature","geometry":{"type":"Point","coordinates":[13.045823911438115,47.809607249302346,0]},"properties":{"NoteType":3,"Name":"E-Kiosk","Notes":"A small kiosk with vending machines offering drinks and light snacks.","hours":"24/7"}},
{"type":"Feature","geometry":{"type":"Point","coordinates":[13.043974794104432,47.811421313151506,0]},"properties":{"NoteType":3,"Name":"goodies @ E-Kiosk","Notes":"A large space filled with food and drink vending machines near the train station.","hours":"24/7"}}
]}
