{"type":"FeatureCollection","features":[{"type":"Feature","id":1,"geometry":{"type":"Point","coordinates":[13.043143054762652,47.789057094144404]},"properties":{"OBJECTID":1,"NoteType":2,"Name":"Public WC","Notes":"A clean and well-maintained public restroom that doesn’t require payment to enter.","hours":""}},{"type":"Feature","id":2,"geometry":{"type":"Point","coordinates":[13.044705148684937,47.813800935495195]},"properties":{"OBJECTID":2,"NoteType":1,"Name":"McDonald's","Notes":"An international symbol of capitalism may not be the first thing that comes to mind when thinking about running, but it can be a great spot to rehydrate or grab a quick bite after your run.","hours":""}},{"type":"Feature","id":3,"geometry":{"type":"Point","coordinates":[13.042419253392127,47.801031598781208]},"properties":{"OBJECTID":3,"NoteType":2,"Name":"Public WC","Notes":"A clean and well-maintained public restroom. Entry fee is 50 cents.","hours":""}},{"type":"Feature","id":4,"geometry":{"type":"Point","coordinates":[13.040846531501716,47.80557102782587]},"properties":{"OBJECTID":4,"NoteType":2,"Name":"Public WC","Notes":"A clean and well-maintained public restroom. Entry fee is 50 cents.","hours":""}},{"type":"Feature","id":5,"geometry":{"type":"Point","coordinates":[13.045450218568106,47.812754220521036]},"properties":{"OBJECTID":5,"NoteType":2,"Name":"Public WC","Notes":"A clean and well-maintained public restroom at the train station for a fee.","hours":""}},{"type":"Feature","id":6,"geometry":{"type":"Point","coordinates":[13.061599404907259,47.809467005371381]},"properties":{"OBJECTID":6,"NoteType":3,"Name":"Day-and-Night E-Kiosk","Notes":"Surprisingly well-stocked snack and drink vending machines.","hours":""}},{"type":"Feature","id":7,"geometry":{"type":"Point","coordinates":[13.061519155707986,47.809828700478633]},"properties":{"OBJECTID":7,"NoteType":1,"Name":"McDonald's","Notes":"An international symbol of capitalism may not be the first thing that comes to mind when thinking about running, but it can be a great spot to rehydrate or grab a quick bite after your run.","hours":""}},{"type":"Feature","id":8,"geometry":{"type":"Point","coordinates":[13.048265789298481,47.804148792669963]},"properties":{"OBJECTID":8,"NoteType":3,"Name":"Bistro Box","Notes":"Well-stocked vending machines with drinks and snacks, but the real highlight is the 24/7 mini pizza machine. A bit pricey, but when everything else is closed at night, it’s a lifesaver.","hours":""}},{"type":"Feature","id":9,"geometry":{"type":"Point","coordinates":[13.018953980766586,47.804254206502286]},"properties":{"OBJECTID":9,"NoteType":3,"Name":"Day-and-Night E-Kiosk","Notes":"Surprisingly well-stocked snack and drink vending machines.","hours":""}},{"type":"Feature","id":10,"geometry":{"type":"Point","coordinates":[13.0458239114381,47.809607249302296]},"properties":{"OBJECTID":10,"NoteType":3,"Name":"E-Kiosk","Notes":"A small kiosk with vending machines offering drinks and light snacks.","hours":""}},{"type":"Feature","id":11,"geometry":{"type":"Point","coordinates":[13.043974794104418,47.811421313151456]},"properties":{"OBJECTID":11,"NoteType":3,"Name":"goodies @ E-Kiosk","Notes":"A large space filled with food and drink vending machines near the train station.","hours":""}}]}